{"type": "FeatureCollection", "features": [{"type": "Feature", "properties": {"station_name": "BOISSY", "depth_from": "[-1.    0.05  0.05  0.15  0.15  0.15  0.15  0.25  0.25  0.25  0.25  0.35\n  0.35  0.35  0.35  0.45  0.45  0.45  0.45  0.55  0.55  0.55  0.65  0.65\n  0.75  0.75  0.75  0.85  0.85  0.95  0.95  0.95  1.05  1.05  1.15  1.15\n  1.35  1.55 -0.1  -1.5   0.5   1.  ]", "depth_to": "[-1.    0.05  0.05  0.15  0.15  0.15  0.15  0.25  0.25  0.25  0.25  0.35\n  0.35  0.35  0.35  0.45  0.45  0.45  0.45  0.55  0.55  0.55  0.65  0.65\n  0.75  0.75  0.75  0.85  0.85  0.95  0.95  0.95  1.05  1.05  1.15  1.15\n  1.35  1.55 -0.1  -1.5   0.5   1.  ]", "network": "ORACLE"}, "geometry": {"type": "Point", "coordinates": [3.1397, 48.8239]}}, {"type": "Feature", "properties": {"station_name": "CERNEUX", "depth_from": "[0.03 0.06]", "depth_to": "[0.03 0.06]", "network": "ORACLE"}, "geometry": {"type": "Point", "coordinates": [3.3592, 48.727]}}, {"type": "Feature", "properties": {"station_name": "CHEVRU", "depth_from": "[0.03 0.06]", "depth_to": "[0.03 0.06]", "network": "ORACLE"}, "geometry": {"type": "Point", "coordinates": [3.2031, 48.7267]}}, {"type": "Feature", "properties": {"station_name": "ESTERNAY", "depth_from": "[0.03 0.06]", "depth_to": "[0.03 0.06]", "network": "ORACLE"}, "geometry": {"type": "Point", "coordinates": [3.5797, 48.7419]}}, {"type": "Feature", "properties": {"station_name": "SUIZY", "depth_from": "[0.05 0.05 0.1  0.1  0.2  0.2  0.3  0.3  0.4  0.4  0.5  0.7  0.9  1.1\n 1.3  1.5 ]", "depth_to": "[0.05 0.05 0.1  0.1  0.2  0.2  0.3  0.3  0.4  0.4  0.5  0.7  0.9  1.1\n 1.3  1.5 ]", "network": "ORACLE"}, "geometry": {"type": "Point", "coordinates": [3.34888, 48.6114]}}, {"type": "Feature", "properties": {"station_name": "VOULTON", "depth_from": "[0.05 0.05 0.1  0.1  0.2  0.2  0.3  0.3  0.4  0.4  0.5  0.7  0.9  1.1\n 1.3  1.5 ]", "depth_to": "[0.05 0.05 0.1  0.1  0.2  0.2  0.3  0.3  0.4  0.4  0.5  0.7  0.9  1.1\n 1.3  1.5 ]", "network": "ORACLE"}, "geometry": {"type": "Point", "coordinates": [3.7314, 48.9333]}}]}