{"type": "FeatureCollection", "features": [{"type": "Feature", "properties": {"station_name": "AGLOS", "depth_from": "[0. 0.]", "depth_to": "[0.1 1. ]", "network": "RUSWET-GRASS"}, "geometry": {"type": "Point", "coordinates": [50.2, 53.05]}}, {"type": "Feature", "properties": {"station_name": "AIDARLY", "depth_from": "[0. 0.]", "depth_to": "[0.1 1. ]", "network": "RUSWET-GRASS"}, "geometry": {"type": "Point", "coordinates": [75.85, 44.13]}}, {"type": "Feature", "properties": {"station_name": "AKALTYN,COTTON", "depth_from": "[0. 0.]", "depth_to": "[0.1 1. ]", "network": "RUSWET-GRASS"}, "geometry": {"type": "Point", "coordinates": [68.44, 40.6]}}, {"type": "Feature", "properties": {"station_name": "AKSHA", "depth_from": "[0. 0.]", "depth_to": "[0.1 1. ]", "network": "RUSWET-GRASS"}, "geometry": {"type": "Point", "coordinates": [113.28, 50.28]}}, {"type": "Feature", "properties": {"station_name": "ALMA-ATA,APPL.GA", "depth_from": "[0. 0.]", "depth_to": "[0.1 1. ]", "network": "RUSWET-GRASS"}, "geometry": {"type": "Point", "coordinates": [76.93, 43.23]}}, {"type": "Feature", "properties": {"station_name": "ASHCHE-UZEK", "depth_from": "[0.]", "depth_to": "[1.]", "network": "RUSWET-GRASS"}, "geometry": {"type": "Point", "coordinates": [47.75, 49.77]}}, {"type": "Feature", "properties": {"station_name": "AYAK-KUM", "depth_from": "[0.]", "depth_to": "[1.]", "network": "RUSWET-GRASS"}, "geometry": {"type": "Point", "coordinates": [59.0, 46.67]}}, {"type": "Feature", "properties": {"station_name": "BAIKADAM", "depth_from": "[0. 0.]", "depth_to": "[0.1 1. ]", "network": "RUSWET-GRASS"}, "geometry": {"type": "Point", "coordinates": [69.97, 43.78]}}, {"type": "Feature", "properties": {"station_name": "BAIRKUM", "depth_from": "[0.]", "depth_to": "[1.]", "network": "RUSWET-GRASS"}, "geometry": {"type": "Point", "coordinates": [68.12, 42.07]}}, {"type": "Feature", "properties": {"station_name": "BARGUZIN", "depth_from": "[0. 0.]", "depth_to": "[0.1 1. ]", "network": "RUSWET-GRASS"}, "geometry": {"type": "Point", "coordinates": [109.63, 53.62]}}, {"type": "Feature", "properties": {"station_name": "BARNAUL", "depth_from": "[0. 0.]", "depth_to": "[0.1 1. ]", "network": "RUSWET-GRASS"}, "geometry": {"type": "Point", "coordinates": [83.7, 53.4]}}, {"type": "Feature", "properties": {"station_name": "BEINEU", "depth_from": "[0.]", "depth_to": "[1.]", "network": "RUSWET-GRASS"}, "geometry": {"type": "Point", "coordinates": [55.0, 45.08]}}, {"type": "Feature", "properties": {"station_name": "BELOGORKA", "depth_from": "[0. 0.]", "depth_to": "[0.1 1. ]", "network": "RUSWET-GRASS"}, "geometry": {"type": "Point", "coordinates": [30.13, 59.35]}}, {"type": "Feature", "properties": {"station_name": "BEZHETSK", "depth_from": "[0. 0.]", "depth_to": "[0.1 1. ]", "network": "RUSWET-GRASS"}, "geometry": {"type": "Point", "coordinates": [36.7, 57.8]}}, {"type": "Feature", "properties": {"station_name": "BOGUCHANY", "depth_from": "[0. 0.]", "depth_to": "[0.1 1. ]", "network": "RUSWET-GRASS"}, "geometry": {"type": "Point", "coordinates": [97.4, 58.42]}}, {"type": "Feature", "properties": {"station_name": "BOROGONTSY", "depth_from": "[0. 0.]", "depth_to": "[0.1 1. ]", "network": "RUSWET-GRASS"}, "geometry": {"type": "Point", "coordinates": [131.17, 62.68]}}, {"type": "Feature", "properties": {"station_name": "BORZJA", "depth_from": "[0. 0.]", "depth_to": "[0.1 1. ]", "network": "RUSWET-GRASS"}, "geometry": {"type": "Point", "coordinates": [116.52, 50.38]}}, {"type": "Feature", "properties": {"station_name": "BOZSU", "depth_from": "[0. 0.]", "depth_to": "[0.1 1. ]", "network": "RUSWET-GRASS"}, "geometry": {"type": "Point", "coordinates": [69.37, 41.4]}}, {"type": "Feature", "properties": {"station_name": "BRYANSK", "depth_from": "[0. 0.]", "depth_to": "[0.1 1. ]", "network": "RUSWET-GRASS"}, "geometry": {"type": "Point", "coordinates": [34.23, 53.33]}}, {"type": "Feature", "properties": {"station_name": "DMITRIEVKA", "depth_from": "[0. 0.]", "depth_to": "[0.1 1. ]", "network": "RUSWET-GRASS"}, "geometry": {"type": "Point", "coordinates": [80.83, 50.77]}}, {"type": "Feature", "properties": {"station_name": "DUKEN", "depth_from": "[0.]", "depth_to": "[1.]", "network": "RUSWET-GRASS"}, "geometry": {"type": "Point", "coordinates": [54.62, 44.27]}}, {"type": "Feature", "properties": {"station_name": "DZHANYBEK", "depth_from": "[0. 0.]", "depth_to": "[0.1 1. ]", "network": "RUSWET-GRASS"}, "geometry": {"type": "Point", "coordinates": [46.8, 49.4]}}, {"type": "Feature", "properties": {"station_name": "ENA", "depth_from": "[0. 0.]", "depth_to": "[0.1 1. ]", "network": "RUSWET-GRASS"}, "geometry": {"type": "Point", "coordinates": [31.17, 67.6]}}, {"type": "Feature", "properties": {"station_name": "ERSHOV", "depth_from": "[0. 0.]", "depth_to": "[0.1 1. ]", "network": "RUSWET-GRASS"}, "geometry": {"type": "Point", "coordinates": [48.3, 51.37]}}, {"type": "Feature", "properties": {"station_name": "FURMANOVO", "depth_from": "[0.]", "depth_to": "[1.]", "network": "RUSWET-GRASS"}, "geometry": {"type": "Point", "coordinates": [49.48, 49.67]}}, {"type": "Feature", "properties": {"station_name": "GALLYA-ARAL", "depth_from": "[0. 0.]", "depth_to": "[0.1 1. ]", "network": "RUSWET-GRASS"}, "geometry": {"type": "Point", "coordinates": [67.58, 40.03]}}, {"type": "Feature", "properties": {"station_name": "GEORGIEVKA", "depth_from": "[0. 0.]", "depth_to": "[0.1 1. ]", "network": "RUSWET-GRASS"}, "geometry": {"type": "Point", "coordinates": [135.23, 47.95]}}, {"type": "Feature", "properties": {"station_name": "GIGANT", "depth_from": "[0. 0.]", "depth_to": "[0.1 1. ]", "network": "RUSWET-GRASS"}, "geometry": {"type": "Point", "coordinates": [41.33, 46.52]}}, {"type": "Feature", "properties": {"station_name": "GISSARSKAYA", "depth_from": "[0. 0.]", "depth_to": "[0.1 1. ]", "network": "RUSWET-GRASS"}, "geometry": {"type": "Point", "coordinates": [68.65, 38.5]}}, {"type": "Feature", "properties": {"station_name": "IOLOTAN", "depth_from": "[0. 0.]", "depth_to": "[0.1 1. ]", "network": "RUSWET-GRASS"}, "geometry": {"type": "Point", "coordinates": [62.42, 37.3]}}, {"type": "Feature", "properties": {"station_name": "IZHEVSK", "depth_from": "[0. 0.]", "depth_to": "[0.1 1. ]", "network": "RUSWET-GRASS"}, "geometry": {"type": "Point", "coordinates": [53.27, 56.82]}}, {"type": "Feature", "properties": {"station_name": "KABANSK", "depth_from": "[0. 0.]", "depth_to": "[0.1 1. ]", "network": "RUSWET-GRASS"}, "geometry": {"type": "Point", "coordinates": [106.65, 52.05]}}, {"type": "Feature", "properties": {"station_name": "KACHUG", "depth_from": "[0. 0.]", "depth_to": "[0.1 1. ]", "network": "RUSWET-GRASS"}, "geometry": {"type": "Point", "coordinates": [105.87, 53.97]}}, {"type": "Feature", "properties": {"station_name": "KAILASTUY", "depth_from": "[0. 0.]", "depth_to": "[0.1 1. ]", "network": "RUSWET-GRASS"}, "geometry": {"type": "Point", "coordinates": [118.38, 49.83]}}, {"type": "Feature", "properties": {"station_name": "KAMYSHEVATSKAYA", "depth_from": "[0. 0.]", "depth_to": "[0.1 1. ]", "network": "RUSWET-GRASS"}, "geometry": {"type": "Point", "coordinates": [37.95, 46.42]}}, {"type": "Feature", "properties": {"station_name": "KAPAK", "depth_from": "[0.]", "depth_to": "[1.]", "network": "RUSWET-GRASS"}, "geometry": {"type": "Point", "coordinates": [63.17, 44.88]}}, {"type": "Feature", "properties": {"station_name": "KARGOPOL", "depth_from": "[0.]", "depth_to": "[0.1]", "network": "RUSWET-GRASS"}, "geometry": {"type": "Point", "coordinates": [38.93, 61.5]}}, {"type": "Feature", "properties": {"station_name": "KEMEROVO", "depth_from": "[0. 0.]", "depth_to": "[0.1 1. ]", "network": "RUSWET-GRASS"}, "geometry": {"type": "Point", "coordinates": [86.07, 55.38]}}, {"type": "Feature", "properties": {"station_name": "KHABAROVSK,AGRO", "depth_from": "[0. 0.]", "depth_to": "[0.1 1. ]", "network": "RUSWET-GRASS"}, "geometry": {"type": "Point", "coordinates": [135.17, 48.52]}}, {"type": "Feature", "properties": {"station_name": "KHAKASSKAYA,GMO", "depth_from": "[0. 0.]", "depth_to": "[0.1 1. ]", "network": "RUSWET-GRASS"}, "geometry": {"type": "Point", "coordinates": [91.32, 53.77]}}, {"type": "Feature", "properties": {"station_name": "KHOMUTOVO", "depth_from": "[0. 0.]", "depth_to": "[0.1 1. ]", "network": "RUSWET-GRASS"}, "geometry": {"type": "Point", "coordinates": [103.95, 52.77]}}, {"type": "Feature", "properties": {"station_name": "KONSTANTINOVKA", "depth_from": "[0. 0.]", "depth_to": "[0.1 1. ]", "network": "RUSWET-GRASS"}, "geometry": {"type": "Point", "coordinates": [127.97, 49.62]}}, {"type": "Feature", "properties": {"station_name": "KORZHASAY", "depth_from": "[0.]", "depth_to": "[1.]", "network": "RUSWET-GRASS"}, "geometry": {"type": "Point", "coordinates": [57.12, 48.22]}}, {"type": "Feature", "properties": {"station_name": "KOSTROMA", "depth_from": "[0. 0.]", "depth_to": "[0.1 1. ]", "network": "RUSWET-GRASS"}, "geometry": {"type": "Point", "coordinates": [40.95, 57.77]}}, {"type": "Feature", "properties": {"station_name": "KRASNOARMEIKA", "depth_from": "[0. 0.]", "depth_to": "[0.1 1. ]", "network": "RUSWET-GRASS"}, "geometry": {"type": "Point", "coordinates": [77.28, 52.35]}}, {"type": "Feature", "properties": {"station_name": "KRASNYTCHIKOY", "depth_from": "[0. 0.]", "depth_to": "[0.1 1. ]", "network": "RUSWET-GRASS"}, "geometry": {"type": "Point", "coordinates": [108.75, 50.37]}}, {"type": "Feature", "properties": {"station_name": "KURGAN-TYUBE", "depth_from": "[0. 0.]", "depth_to": "[0.1 1. ]", "network": "RUSWET-GRASS"}, "geometry": {"type": "Point", "coordinates": [68.78, 37.82]}}, {"type": "Feature", "properties": {"station_name": "KUSTANAI,AGRO", "depth_from": "[0. 0.]", "depth_to": "[0.1 1. ]", "network": "RUSWET-GRASS"}, "geometry": {"type": "Point", "coordinates": [63.62, 53.22]}}, {"type": "Feature", "properties": {"station_name": "KYZAN", "depth_from": "[0.]", "depth_to": "[1.]", "network": "RUSWET-GRASS"}, "geometry": {"type": "Point", "coordinates": [52.67, 44.9]}}, {"type": "Feature", "properties": {"station_name": "KYZYLSKAYA,GMO", "depth_from": "[0. 0.]", "depth_to": "[0.1 1. ]", "network": "RUSWET-GRASS"}, "geometry": {"type": "Point", "coordinates": [94.5, 51.72]}}, {"type": "Feature", "properties": {"station_name": "KYZYLTCHA", "depth_from": "[0. 0.]", "depth_to": "[0.1 1. ]", "network": "RUSWET-GRASS"}, "geometry": {"type": "Point", "coordinates": [70.42, 41.22]}}, {"type": "Feature", "properties": {"station_name": "MATCHA", "depth_from": "[0. 0.]", "depth_to": "[0.1 1. ]", "network": "RUSWET-GRASS"}, "geometry": {"type": "Point", "coordinates": [117.6, 59.93]}}, {"type": "Feature", "properties": {"station_name": "MAZANOVO", "depth_from": "[0. 0.]", "depth_to": "[0.1 1. ]", "network": "RUSWET-GRASS"}, "geometry": {"type": "Point", "coordinates": [128.82, 51.63]}}, {"type": "Feature", "properties": {"station_name": "MITCHURINSK,APPL.", "depth_from": "[0. 0.]", "depth_to": "[0.1 1. ]", "network": "RUSWET-GRASS"}, "geometry": {"type": "Point", "coordinates": [40.48, 52.88]}}, {"type": "Feature", "properties": {"station_name": "MUKHORSHIBIR", "depth_from": "[0. 0.]", "depth_to": "[0.1 1. ]", "network": "RUSWET-GRASS"}, "geometry": {"type": "Point", "coordinates": [107.82, 51.03]}}, {"type": "Feature", "properties": {"station_name": "MUYA", "depth_from": "[0. 0.]", "depth_to": "[0.1 1. ]", "network": "RUSWET-GRASS"}, "geometry": {"type": "Point", "coordinates": [115.67, 56.5]}}, {"type": "Feature", "properties": {"station_name": "NAMSTY", "depth_from": "[0. 0.]", "depth_to": "[0.1 1. ]", "network": "RUSWET-GRASS"}, "geometry": {"type": "Point", "coordinates": [129.67, 62.73]}}, {"type": "Feature", "properties": {"station_name": "NAZAROVO", "depth_from": "[0. 0.]", "depth_to": "[0.1 1. ]", "network": "RUSWET-GRASS"}, "geometry": {"type": "Point", "coordinates": [90.32, 56.03]}}, {"type": "Feature", "properties": {"station_name": "NIKOLAEVSKOYE", "depth_from": "[0. 0.]", "depth_to": "[0.1 1. ]", "network": "RUSWET-GRASS"}, "geometry": {"type": "Point", "coordinates": [29.8, 58.57]}}, {"type": "Feature", "properties": {"station_name": "NYURBA", "depth_from": "[0. 0.]", "depth_to": "[0.1 1. ]", "network": "RUSWET-GRASS"}, "geometry": {"type": "Point", "coordinates": [118.2, 63.28]}}, {"type": "Feature", "properties": {"station_name": "NYUYA", "depth_from": "[0. 0.]", "depth_to": "[0.1 1. ]", "network": "RUSWET-GRASS"}, "geometry": {"type": "Point", "coordinates": [116.23, 60.53]}}, {"type": "Feature", "properties": {"station_name": "OGURTSOVO", "depth_from": "[0. 0.]", "depth_to": "[0.1 1. ]", "network": "RUSWET-GRASS"}, "geometry": {"type": "Point", "coordinates": [82.95, 54.9]}}, {"type": "Feature", "properties": {"station_name": "OLEKMINSK", "depth_from": "[0. 0.]", "depth_to": "[0.1 1. ]", "network": "RUSWET-GRASS"}, "geometry": {"type": "Point", "coordinates": [120.42, 60.4]}}, {"type": "Feature", "properties": {"station_name": "OLONETS", "depth_from": "[0. 0.]", "depth_to": "[0.1 1. ]", "network": "RUSWET-GRASS"}, "geometry": {"type": "Point", "coordinates": [32.95, 60.98]}}, {"type": "Feature", "properties": {"station_name": "OLOVYANNAYA", "depth_from": "[0. 0.]", "depth_to": "[0.1 1. ]", "network": "RUSWET-GRASS"}, "geometry": {"type": "Point", "coordinates": [115.58, 50.95]}}, {"type": "Feature", "properties": {"station_name": "OMSK", "depth_from": "[0. 0.]", "depth_to": "[0.1 1. ]", "network": "RUSWET-GRASS"}, "geometry": {"type": "Point", "coordinates": [73.4, 54.93]}}, {"type": "Feature", "properties": {"station_name": "OREL", "depth_from": "[0. 0.]", "depth_to": "[0.1 1. ]", "network": "RUSWET-GRASS"}, "geometry": {"type": "Point", "coordinates": [36.03, 53.0]}}, {"type": "Feature", "properties": {"station_name": "PENZA", "depth_from": "[0. 0.]", "depth_to": "[0.1 1. ]", "network": "RUSWET-GRASS"}, "geometry": {"type": "Point", "coordinates": [45.02, 53.13]}}, {"type": "Feature", "properties": {"station_name": "PETRINKA", "depth_from": "[0. 0.]", "depth_to": "[0.1 1. ]", "network": "RUSWET-GRASS"}, "geometry": {"type": "Point", "coordinates": [36.25, 51.6]}}, {"type": "Feature", "properties": {"station_name": "PHALENKI", "depth_from": "[0. 0.]", "depth_to": "[0.1 1. ]", "network": "RUSWET-GRASS"}, "geometry": {"type": "Point", "coordinates": [51.6, 58.35]}}, {"type": "Feature", "properties": {"station_name": "PHEDTCHENKO,COTTON", "depth_from": "[0. 0.]", "depth_to": "[0.1 1. ]", "network": "RUSWET-GRASS"}, "geometry": {"type": "Point", "coordinates": [72.07, 40.57]}}, {"type": "Feature", "properties": {"station_name": "PHROLOVO", "depth_from": "[0. 0.]", "depth_to": "[0.1 1. ]", "network": "RUSWET-GRASS"}, "geometry": {"type": "Point", "coordinates": [43.67, 49.8]}}, {"type": "Feature", "properties": {"station_name": "PLAVSK", "depth_from": "[0. 0.]", "depth_to": "[0.1 1. ]", "network": "RUSWET-GRASS"}, "geometry": {"type": "Point", "coordinates": [37.23, 53.65]}}, {"type": "Feature", "properties": {"station_name": "POKROVSK", "depth_from": "[0. 0.]", "depth_to": "[0.1 1. ]", "network": "RUSWET-GRASS"}, "geometry": {"type": "Point", "coordinates": [129.15, 61.48]}}, {"type": "Feature", "properties": {"station_name": "PSKOV", "depth_from": "[0. 0.]", "depth_to": "[0.1 1. ]", "network": "RUSWET-GRASS"}, "geometry": {"type": "Point", "coordinates": [28.42, 57.8]}}, {"type": "Feature", "properties": {"station_name": "PUDOZH", "depth_from": "[0. 0.]", "depth_to": "[0.1 1. ]", "network": "RUSWET-GRASS"}, "geometry": {"type": "Point", "coordinates": [36.52, 61.8]}}, {"type": "Feature", "properties": {"station_name": "RODNIKOVKA", "depth_from": "[0. 0.]", "depth_to": "[0.1 1. ]", "network": "RUSWET-GRASS"}, "geometry": {"type": "Point", "coordinates": [57.2, 50.63]}}, {"type": "Feature", "properties": {"station_name": "ROIKA", "depth_from": "[0. 0.]", "depth_to": "[0.1 1. ]", "network": "RUSWET-GRASS"}, "geometry": {"type": "Point", "coordinates": [44.03, 56.22]}}, {"type": "Feature", "properties": {"station_name": "ROSTOSHY", "depth_from": "[0. 0.]", "depth_to": "[0.1 1. ]", "network": "RUSWET-GRASS"}, "geometry": {"type": "Point", "coordinates": [43.58, 51.87]}}, {"type": "Feature", "properties": {"station_name": "SAM", "depth_from": "[0.]", "depth_to": "[1.]", "network": "RUSWET-GRASS"}, "geometry": {"type": "Point", "coordinates": [56.12, 45.4]}}, {"type": "Feature", "properties": {"station_name": "SANYJAKHTAT", "depth_from": "[0. 0.]", "depth_to": "[0.1 1. ]", "network": "RUSWET-GRASS"}, "geometry": {"type": "Point", "coordinates": [124.07, 60.58]}}, {"type": "Feature", "properties": {"station_name": "SEMIKARAKORSK", "depth_from": "[0. 0.]", "depth_to": "[0.1 1. ]", "network": "RUSWET-GRASS"}, "geometry": {"type": "Point", "coordinates": [40.77, 47.52]}}, {"type": "Feature", "properties": {"station_name": "SHARKOVSHCHINA", "depth_from": "[0. 0.]", "depth_to": "[0.1 1. ]", "network": "RUSWET-GRASS"}, "geometry": {"type": "Point", "coordinates": [27.47, 55.37]}}, {"type": "Feature", "properties": {"station_name": "SHELOPUGINO", "depth_from": "[0. 0.]", "depth_to": "[0.1 1. ]", "network": "RUSWET-GRASS"}, "geometry": {"type": "Point", "coordinates": [117.57, 51.65]}}, {"type": "Feature", "properties": {"station_name": "SHORTANDY", "depth_from": "[0. 0.]", "depth_to": "[0.1 1. ]", "network": "RUSWET-GRASS"}, "geometry": {"type": "Point", "coordinates": [71.0, 51.67]}}, {"type": "Feature", "properties": {"station_name": "SLAVGOROD", "depth_from": "[0. 0.]", "depth_to": "[0.1 1. ]", "network": "RUSWET-GRASS"}, "geometry": {"type": "Point", "coordinates": [78.65, 52.97]}}, {"type": "Feature", "properties": {"station_name": "SOLYANKA", "depth_from": "[0. 0.]", "depth_to": "[0.1 1. ]", "network": "RUSWET-GRASS"}, "geometry": {"type": "Point", "coordinates": [95.27, 56.17]}}, {"type": "Feature", "properties": {"station_name": "SOSNOVKA", "depth_from": "[0. 0.]", "depth_to": "[0.1 1. ]", "network": "RUSWET-GRASS"}, "geometry": {"type": "Point", "coordinates": [94.52, 51.15]}}, {"type": "Feature", "properties": {"station_name": "SOSNOVO-OZERSK", "depth_from": "[0. 0.]", "depth_to": "[0.1 1. ]", "network": "RUSWET-GRASS"}, "geometry": {"type": "Point", "coordinates": [111.55, 52.53]}}, {"type": "Feature", "properties": {"station_name": "SUNTAR", "depth_from": "[0. 0.]", "depth_to": "[0.1 1. ]", "network": "RUSWET-GRASS"}, "geometry": {"type": "Point", "coordinates": [117.65, 62.15]}}, {"type": "Feature", "properties": {"station_name": "SURSKOE", "depth_from": "[0. 0.]", "depth_to": "[0.1 1. ]", "network": "RUSWET-GRASS"}, "geometry": {"type": "Point", "coordinates": [46.73, 54.48]}}, {"type": "Feature", "properties": {"station_name": "SVERDLOVSK,ISTOK", "depth_from": "[0. 0.]", "depth_to": "[0.1 1. ]", "network": "RUSWET-GRASS"}, "geometry": {"type": "Point", "coordinates": [60.63, 56.8]}}, {"type": "Feature", "properties": {"station_name": "TASTY", "depth_from": "[0.]", "depth_to": "[1.]", "network": "RUSWET-GRASS"}, "geometry": {"type": "Point", "coordinates": [69.12, 44.72]}}, {"type": "Feature", "properties": {"station_name": "TAUP", "depth_from": "[0.]", "depth_to": "[1.]", "network": "RUSWET-GRASS"}, "geometry": {"type": "Point", "coordinates": [62.0, 48.25]}}, {"type": "Feature", "properties": {"station_name": "TCHAGLY", "depth_from": "[0. 0.]", "depth_to": "[0.1 1. ]", "network": "RUSWET-GRASS"}, "geometry": {"type": "Point", "coordinates": [69.53, 54.17]}}, {"type": "Feature", "properties": {"station_name": "TCHEBENKI", "depth_from": "[0.]", "depth_to": "[0.1]", "network": "RUSWET-GRASS"}, "geometry": {"type": "Point", "coordinates": [54.95, 51.83]}}, {"type": "Feature", "properties": {"station_name": "TCHERNIGOVKA", "depth_from": "[0. 0.]", "depth_to": "[0.1 1. ]", "network": "RUSWET-GRASS"}, "geometry": {"type": "Point", "coordinates": [71.47, 50.47]}}, {"type": "Feature", "properties": {"station_name": "TCHIMKENT,AGRO13", "depth_from": "[0. 0.]", "depth_to": "[0.1 1. ]", "network": "RUSWET-GRASS"}, "geometry": {"type": "Point", "coordinates": [69.6, 42.3]}}, {"type": "Feature", "properties": {"station_name": "TCHISHMY", "depth_from": "[0. 0.]", "depth_to": "[0.1 1. ]", "network": "RUSWET-GRASS"}, "geometry": {"type": "Point", "coordinates": [55.38, 54.57]}}, {"type": "Feature", "properties": {"station_name": "TCHITA,AGRO", "depth_from": "[0. 0.]", "depth_to": "[0.1 1. ]", "network": "RUSWET-GRASS"}, "geometry": {"type": "Point", "coordinates": [113.33, 52.02]}}, {"type": "Feature", "properties": {"station_name": "TCHURAPTCHA", "depth_from": "[0. 0.]", "depth_to": "[0.1 1. ]", "network": "RUSWET-GRASS"}, "geometry": {"type": "Point", "coordinates": [132.6, 62.03]}}, {"type": "Feature", "properties": {"station_name": "TEREKTY", "depth_from": "[0. 0.]", "depth_to": "[0.1 1. ]", "network": "RUSWET-GRASS"}, "geometry": {"type": "Point", "coordinates": [55.65, 48.95]}}, {"type": "Feature", "properties": {"station_name": "TOMMOT", "depth_from": "[0. 0.]", "depth_to": "[0.1 1. ]", "network": "RUSWET-GRASS"}, "geometry": {"type": "Point", "coordinates": [126.27, 58.97]}}, {"type": "Feature", "properties": {"station_name": "TOREY", "depth_from": "[0.]", "depth_to": "[0.1]", "network": "RUSWET-GRASS"}, "geometry": {"type": "Point", "coordinates": [104.83, 50.53]}}, {"type": "Feature", "properties": {"station_name": "TROITSKO-PECHERSKOE", "depth_from": "[0. 0.]", "depth_to": "[0.1 1. ]", "network": "RUSWET-GRASS"}, "geometry": {"type": "Point", "coordinates": [56.2, 62.7]}}, {"type": "Feature", "properties": {"station_name": "TSYVILSK", "depth_from": "[0. 0.]", "depth_to": "[0.1 1. ]", "network": "RUSWET-GRASS"}, "geometry": {"type": "Point", "coordinates": [47.5, 55.85]}}, {"type": "Feature", "properties": {"station_name": "TULUN", "depth_from": "[0. 0.]", "depth_to": "[0.1 1. ]", "network": "RUSWET-GRASS"}, "geometry": {"type": "Point", "coordinates": [100.63, 54.6]}}, {"type": "Feature", "properties": {"station_name": "TURA", "depth_from": "[0. 0.]", "depth_to": "[0.1 1. ]", "network": "RUSWET-GRASS"}, "geometry": {"type": "Point", "coordinates": [100.23, 64.27]}}, {"type": "Feature", "properties": {"station_name": "TYUMEN", "depth_from": "[0. 0.]", "depth_to": "[0.1 1. ]", "network": "RUSWET-GRASS"}, "geometry": {"type": "Point", "coordinates": [65.5, 57.15]}}, {"type": "Feature", "properties": {"station_name": "ULETY", "depth_from": "[0. 0.]", "depth_to": "[0.1 1. ]", "network": "RUSWET-GRASS"}, "geometry": {"type": "Point", "coordinates": [112.33, 51.35]}}, {"type": "Feature", "properties": {"station_name": "URALSK", "depth_from": "[0. 0.]", "depth_to": "[0.1 1. ]", "network": "RUSWET-GRASS"}, "geometry": {"type": "Point", "coordinates": [51.4, 51.25]}}, {"type": "Feature", "properties": {"station_name": "UST-MAJA", "depth_from": "[0. 0.]", "depth_to": "[0.1 1. ]", "network": "RUSWET-GRASS"}, "geometry": {"type": "Point", "coordinates": [134.45, 60.38]}}, {"type": "Feature", "properties": {"station_name": "UST-TSILMA", "depth_from": "[0. 0.]", "depth_to": "[0.1 1. ]", "network": "RUSWET-GRASS"}, "geometry": {"type": "Point", "coordinates": [52.17, 65.45]}}, {"type": "Feature", "properties": {"station_name": "VASILEVITCHI1", "depth_from": "[0. 0.]", "depth_to": "[0.1 1. ]", "network": "RUSWET-GRASS"}, "geometry": {"type": "Point", "coordinates": [29.83, 52.25]}}, {"type": "Feature", "properties": {"station_name": "VERKHNEVILYUISK", "depth_from": "[0. 0.]", "depth_to": "[0.1 1. ]", "network": "RUSWET-GRASS"}, "geometry": {"type": "Point", "coordinates": [120.32, 63.45]}}, {"type": "Feature", "properties": {"station_name": "VOLOGDA,SEMENKOVO", "depth_from": "[0. 0.]", "depth_to": "[0.1 1. ]", "network": "RUSWET-GRASS"}, "geometry": {"type": "Point", "coordinates": [39.87, 59.23]}}, {"type": "Feature", "properties": {"station_name": "VORONEZ", "depth_from": "[0. 0.]", "depth_to": "[0.1 1. ]", "network": "RUSWET-GRASS"}, "geometry": {"type": "Point", "coordinates": [39.17, 51.7]}}, {"type": "Feature", "properties": {"station_name": "YAKUTSK,GMO", "depth_from": "[0. 0.]", "depth_to": "[0.1 1. ]", "network": "RUSWET-GRASS"}, "geometry": {"type": "Point", "coordinates": [129.14, 62.08]}}, {"type": "Feature", "properties": {"station_name": "ZHETY-ZHOL", "depth_from": "[0.]", "depth_to": "[1.]", "network": "RUSWET-GRASS"}, "geometry": {"type": "Point", "coordinates": [77.25, 45.0]}}]}