{"type": "FeatureCollection", "features": [{"type": "Feature", "properties": {"station_name": "A-Ata", "depth_from": "[0. 0.]", "depth_to": "[0.2 1. ]", "network": "RUSWET-AGRO"}, "geometry": {"type": "Point", "coordinates": [77.08, 43.72]}}, {"type": "Feature", "properties": {"station_name": "AdygeyaRepublic", "depth_from": "[0. 0.]", "depth_to": "[0.2 1. ]", "network": "RUSWET-AGRO"}, "geometry": {"type": "Point", "coordinates": [40.337, 44.562]}}, {"type": "Feature", "properties": {"station_name": "Aktubinsk", "depth_from": "[0. 0.]", "depth_to": "[0.2 1. ]", "network": "RUSWET-AGRO"}, "geometry": {"type": "Point", "coordinates": [57.95, 49.57]}}, {"type": "Feature", "properties": {"station_name": "Altai", "depth_from": "[0. 0.]", "depth_to": "[0.2 1. ]", "network": "RUSWET-AGRO"}, "geometry": {"type": "Point", "coordinates": [83.17, 52.2]}}, {"type": "Feature", "properties": {"station_name": "Andizhanskaya", "depth_from": "[0. 0.]", "depth_to": "[0.2 1. ]", "network": "RUSWET-AGRO"}, "geometry": {"type": "Point", "coordinates": [71.929, 40.68]}}, {"type": "Feature", "properties": {"station_name": "Arkhangelskaya", "depth_from": "[0. 0.]", "depth_to": "[0.2 1. ]", "network": "RUSWET-AGRO"}, "geometry": {"type": "Point", "coordinates": [43.93, 61.86]}}, {"type": "Feature", "properties": {"station_name": "Astrakhanskaya", "depth_from": "[0. 0.]", "depth_to": "[0.2 1. ]", "network": "RUSWET-AGRO"}, "geometry": {"type": "Point", "coordinates": [47.75, 47.1]}}, {"type": "Feature", "properties": {"station_name": "Balkanskaya", "depth_from": "[0. 0.]", "depth_to": "[0.2 1. ]", "network": "RUSWET-AGRO"}, "geometry": {"type": "Point", "coordinates": [54.663, 39.087]}}, {"type": "Feature", "properties": {"station_name": "Bashkirrepublic", "depth_from": "[0. 0.]", "depth_to": "[0.2 1. ]", "network": "RUSWET-AGRO"}, "geometry": {"type": "Point", "coordinates": [56.15, 54.23]}}, {"type": "Feature", "properties": {"station_name": "Belgorodskaya", "depth_from": "[0. 0.]", "depth_to": "[0.2 1. ]", "network": "RUSWET-AGRO"}, "geometry": {"type": "Point", "coordinates": [37.27, 50.82]}}, {"type": "Feature", "properties": {"station_name": "Brestskaya", "depth_from": "[0. 0.]", "depth_to": "[0.2 1. ]", "network": "RUSWET-AGRO"}, "geometry": {"type": "Point", "coordinates": [25.257, 52.466]}}, {"type": "Feature", "properties": {"station_name": "Brjanskaya", "depth_from": "[0. 0.]", "depth_to": "[0.2 1. ]", "network": "RUSWET-AGRO"}, "geometry": {"type": "Point", "coordinates": [33.82, 53.07]}}, {"type": "Feature", "properties": {"station_name": "Bukharskaya", "depth_from": "[0. 0.]", "depth_to": "[0.2 1. ]", "network": "RUSWET-AGRO"}, "geometry": {"type": "Point", "coordinates": [64.119, 41.099]}}, {"type": "Feature", "properties": {"station_name": "Burjatia", "depth_from": "[0. 0.]", "depth_to": "[0.2 1. ]", "network": "RUSWET-AGRO"}, "geometry": {"type": "Point", "coordinates": [108.5, 52.05]}}, {"type": "Feature", "properties": {"station_name": "Chechnja", "depth_from": "[0. 0.]", "depth_to": "[0.2 1. ]", "network": "RUSWET-AGRO"}, "geometry": {"type": "Point", "coordinates": [46.07, 43.32]}}, {"type": "Feature", "properties": {"station_name": "Chelyabinsk", "depth_from": "[0. 0.]", "depth_to": "[0.2 1. ]", "network": "RUSWET-AGRO"}, "geometry": {"type": "Point", "coordinates": [60.8, 54.42]}}, {"type": "Feature", "properties": {"station_name": "Chimkent", "depth_from": "[0. 0.]", "depth_to": "[0.2 1. ]", "network": "RUSWET-AGRO"}, "geometry": {"type": "Point", "coordinates": [68.77, 42.57]}}, {"type": "Feature", "properties": {"station_name": "Chita", "depth_from": "[0. 0.]", "depth_to": "[0.2 1. ]", "network": "RUSWET-AGRO"}, "geometry": {"type": "Point", "coordinates": [115.27, 51.07]}}, {"type": "Feature", "properties": {"station_name": "ChukotskiAvtonomnyiOkrug", "depth_from": "[0.]", "depth_to": "[0.2]", "network": "RUSWET-AGRO"}, "geometry": {"type": "Point", "coordinates": [162.93, 69.64]}}, {"type": "Feature", "properties": {"station_name": "Chuvashskayarepublic", "depth_from": "[0. 0.]", "depth_to": "[0.2 1. ]", "network": "RUSWET-AGRO"}, "geometry": {"type": "Point", "coordinates": [47.13, 55.42]}}, {"type": "Feature", "properties": {"station_name": "DagestanRepublic", "depth_from": "[0. 0.]", "depth_to": "[0.2 1. ]", "network": "RUSWET-AGRO"}, "geometry": {"type": "Point", "coordinates": [47.13, 44.74]}}, {"type": "Feature", "properties": {"station_name": "Dzambul", "depth_from": "[0. 0.]", "depth_to": "[0.2 1. ]", "network": "RUSWET-AGRO"}, "geometry": {"type": "Point", "coordinates": [72.57, 43.82]}}, {"type": "Feature", "properties": {"station_name": "Dzhalal-Abadskaya", "depth_from": "[0. 0.]", "depth_to": "[0.2 1. ]", "network": "RUSWET-AGRO"}, "geometry": {"type": "Point", "coordinates": [72.622, 41.249]}}, {"type": "Feature", "properties": {"station_name": "Dzhezkazg", "depth_from": "[0. 0.]", "depth_to": "[0.2 1. ]", "network": "RUSWET-AGRO"}, "geometry": {"type": "Point", "coordinates": [69.7, 48.03]}}, {"type": "Feature", "properties": {"station_name": "East-Kaza", "depth_from": "[0. 0.]", "depth_to": "[0.2 1. ]", "network": "RUSWET-AGRO"}, "geometry": {"type": "Point", "coordinates": [83.58, 49.45]}}, {"type": "Feature", "properties": {"station_name": "Estonia", "depth_from": "[0. 0.]", "depth_to": "[0.2 1. ]", "network": "RUSWET-AGRO"}, "geometry": {"type": "Point", "coordinates": [25.6, 58.62]}}, {"type": "Feature", "properties": {"station_name": "Ferganskaya", "depth_from": "[0.]", "depth_to": "[0.2]", "network": "RUSWET-AGRO"}, "geometry": {"type": "Point", "coordinates": [72.06, 40.56]}}, {"type": "Feature", "properties": {"station_name": "Gbao", "depth_from": "[0. 0.]", "depth_to": "[0.2 1. ]", "network": "RUSWET-AGRO"}, "geometry": {"type": "Point", "coordinates": [71.6, 36.721]}}, {"type": "Feature", "properties": {"station_name": "Gomelskaya", "depth_from": "[0. 0.]", "depth_to": "[0.2 1. ]", "network": "RUSWET-AGRO"}, "geometry": {"type": "Point", "coordinates": [29.72, 52.3]}}, {"type": "Feature", "properties": {"station_name": "Grodnenskaya", "depth_from": "[0. 0.]", "depth_to": "[0.2 1. ]", "network": "RUSWET-AGRO"}, "geometry": {"type": "Point", "coordinates": [25.1, 53.62]}}, {"type": "Feature", "properties": {"station_name": "Gruzia", "depth_from": "[0. 0.]", "depth_to": "[0.2 1. ]", "network": "RUSWET-AGRO"}, "geometry": {"type": "Point", "coordinates": [44.649, 43.761]}}, {"type": "Feature", "properties": {"station_name": "Gurjvskaya", "depth_from": "[0. 0.]", "depth_to": "[0.2 1. ]", "network": "RUSWET-AGRO"}, "geometry": {"type": "Point", "coordinates": [48.8, 47.9]}}, {"type": "Feature", "properties": {"station_name": "IngushskayaRepublic", "depth_from": "[0. 0.]", "depth_to": "[0.2 1. ]", "network": "RUSWET-AGRO"}, "geometry": {"type": "Point", "coordinates": [45.05, 43.321]}}, {"type": "Feature", "properties": {"station_name": "Irkut", "depth_from": "[0. 0.]", "depth_to": "[0.2 1. ]", "network": "RUSWET-AGRO"}, "geometry": {"type": "Point", "coordinates": [103.2, 54.62]}}, {"type": "Feature", "properties": {"station_name": "Ivanovskaya", "depth_from": "[0. 0.]", "depth_to": "[0.2 1. ]", "network": "RUSWET-AGRO"}, "geometry": {"type": "Point", "coordinates": [42.05, 57.2]}}, {"type": "Feature", "properties": {"station_name": "Kabardino-Balkarskaya", "depth_from": "[0. 0.]", "depth_to": "[0.2 1. ]", "network": "RUSWET-AGRO"}, "geometry": {"type": "Point", "coordinates": [43.69, 43.72]}}, {"type": "Feature", "properties": {"station_name": "Kaliningradskaya", "depth_from": "[0. 0.]", "depth_to": "[0.2 1. ]", "network": "RUSWET-AGRO"}, "geometry": {"type": "Point", "coordinates": [21.4, 54.75]}}, {"type": "Feature", "properties": {"station_name": "Kalmkskaya", "depth_from": "[0. 0.]", "depth_to": "[0.2 1. ]", "network": "RUSWET-AGRO"}, "geometry": {"type": "Point", "coordinates": [43.63, 46.4]}}, {"type": "Feature", "properties": {"station_name": "Kaluzhskaya", "depth_from": "[0. 0.]", "depth_to": "[0.2 1. ]", "network": "RUSWET-AGRO"}, "geometry": {"type": "Point", "coordinates": [35.4, 54.37]}}, {"type": "Feature", "properties": {"station_name": "Kara-Kalpakskaya", "depth_from": "[0. 0.]", "depth_to": "[0.2 1. ]", "network": "RUSWET-AGRO"}, "geometry": {"type": "Point", "coordinates": [59.151, 43.269]}}, {"type": "Feature", "properties": {"station_name": "Karachaevo-CherkesskayaRepu", "depth_from": "[0. 0.]", "depth_to": "[0.2 1. ]", "network": "RUSWET-AGRO"}, "geometry": {"type": "Point", "coordinates": [41.771, 43.748]}}, {"type": "Feature", "properties": {"station_name": "Karaganda", "depth_from": "[0. 0.]", "depth_to": "[0.2 1. ]", "network": "RUSWET-AGRO"}, "geometry": {"type": "Point", "coordinates": [73.07, 50.17]}}, {"type": "Feature", "properties": {"station_name": "KarelskayaRepublic", "depth_from": "[0. 0.]", "depth_to": "[0.2 1. ]", "network": "RUSWET-AGRO"}, "geometry": {"type": "Point", "coordinates": [33.6, 62.2]}}, {"type": "Feature", "properties": {"station_name": "Kashkadarinskaya", "depth_from": "[0. 0.]", "depth_to": "[0.2 1. ]", "network": "RUSWET-AGRO"}, "geometry": {"type": "Point", "coordinates": [66.122, 38.811]}}, {"type": "Feature", "properties": {"station_name": "Kemer", "depth_from": "[0. 0.]", "depth_to": "[0.2 1. ]", "network": "RUSWET-AGRO"}, "geometry": {"type": "Point", "coordinates": [86.78, 54.98]}}, {"type": "Feature", "properties": {"station_name": "Khorezmskaya", "depth_from": "[0. 0.]", "depth_to": "[0.2 1. ]", "network": "RUSWET-AGRO"}, "geometry": {"type": "Point", "coordinates": [60.38, 41.399]}}, {"type": "Feature", "properties": {"station_name": "Kirov", "depth_from": "[0. 0.]", "depth_to": "[0.2 1. ]", "network": "RUSWET-AGRO"}, "geometry": {"type": "Point", "coordinates": [49.72, 57.92]}}, {"type": "Feature", "properties": {"station_name": "Kokchetav", "depth_from": "[0. 0.]", "depth_to": "[0.2 1. ]", "network": "RUSWET-AGRO"}, "geometry": {"type": "Point", "coordinates": [69.6, 53.3]}}, {"type": "Feature", "properties": {"station_name": "KomiRepublic", "depth_from": "[0. 0.]", "depth_to": "[0.2 1. ]", "network": "RUSWET-AGRO"}, "geometry": {"type": "Point", "coordinates": [52.2, 61.38]}}, {"type": "Feature", "properties": {"station_name": "Kostromskaya", "depth_from": "[0. 0.]", "depth_to": "[0.2 1. ]", "network": "RUSWET-AGRO"}, "geometry": {"type": "Point", "coordinates": [43.1, 58.33]}}, {"type": "Feature", "properties": {"station_name": "Krasnodarskaya", "depth_from": "[0. 0.]", "depth_to": "[0.2 1. ]", "network": "RUSWET-AGRO"}, "geometry": {"type": "Point", "coordinates": [39.58, 45.57]}}, {"type": "Feature", "properties": {"station_name": "Krasnoja", "depth_from": "[0. 0.]", "depth_to": "[0.2 1. ]", "network": "RUSWET-AGRO"}, "geometry": {"type": "Point", "coordinates": [92.95, 55.7]}}, {"type": "Feature", "properties": {"station_name": "KrasnojarskiKrai", "depth_from": "[0. 0.]", "depth_to": "[0.2 1. ]", "network": "RUSWET-AGRO"}, "geometry": {"type": "Point", "coordinates": [56.4, 80.1]}}, {"type": "Feature", "properties": {"station_name": "Ksyl-Ordinskaya", "depth_from": "[0. 0.]", "depth_to": "[0.2 1. ]", "network": "RUSWET-AGRO"}, "geometry": {"type": "Point", "coordinates": [64.568, 45.249]}}, {"type": "Feature", "properties": {"station_name": "Kurgan", "depth_from": "[0. 0.]", "depth_to": "[0.2 1. ]", "network": "RUSWET-AGRO"}, "geometry": {"type": "Point", "coordinates": [64.75, 55.38]}}, {"type": "Feature", "properties": {"station_name": "Kurskaya", "depth_from": "[0. 0.]", "depth_to": "[0.2 1. ]", "network": "RUSWET-AGRO"}, "geometry": {"type": "Point", "coordinates": [36.27, 51.67]}}, {"type": "Feature", "properties": {"station_name": "Kustanaj", "depth_from": "[0. 0.]", "depth_to": "[0.2 1. ]", "network": "RUSWET-AGRO"}, "geometry": {"type": "Point", "coordinates": [63.37, 53.05]}}, {"type": "Feature", "properties": {"station_name": "Latvia", "depth_from": "[0. 0.]", "depth_to": "[0.2 1. ]", "network": "RUSWET-AGRO"}, "geometry": {"type": "Point", "coordinates": [25.27, 56.82]}}, {"type": "Feature", "properties": {"station_name": "Leningradskaya", "depth_from": "[0. 0.]", "depth_to": "[0.2 1. ]", "network": "RUSWET-AGRO"}, "geometry": {"type": "Point", "coordinates": [31.99, 59.757]}}, {"type": "Feature", "properties": {"station_name": "Lipetskaya", "depth_from": "[0. 0.]", "depth_to": "[0.2 1. ]", "network": "RUSWET-AGRO"}, "geometry": {"type": "Point", "coordinates": [39.32, 50.38]}}, {"type": "Feature", "properties": {"station_name": "Litva", "depth_from": "[0. 0.]", "depth_to": "[0.2 1. ]", "network": "RUSWET-AGRO"}, "geometry": {"type": "Point", "coordinates": [23.88, 55.3]}}, {"type": "Feature", "properties": {"station_name": "Marirepublic", "depth_from": "[0. 0.]", "depth_to": "[0.2 1. ]", "network": "RUSWET-AGRO"}, "geometry": {"type": "Point", "coordinates": [48.42, 56.65]}}, {"type": "Feature", "properties": {"station_name": "Minskaya", "depth_from": "[0. 0.]", "depth_to": "[0.2 1. ]", "network": "RUSWET-AGRO"}, "geometry": {"type": "Point", "coordinates": [27.62, 53.82]}}, {"type": "Feature", "properties": {"station_name": "Mogilevskaya", "depth_from": "[0. 0.]", "depth_to": "[0.2 1. ]", "network": "RUSWET-AGRO"}, "geometry": {"type": "Point", "coordinates": [30.62, 53.68]}}, {"type": "Feature", "properties": {"station_name": "Moldova", "depth_from": "[0. 0.]", "depth_to": "[0.2 1. ]", "network": "RUSWET-AGRO"}, "geometry": {"type": "Point", "coordinates": [28.85, 46.82]}}, {"type": "Feature", "properties": {"station_name": "Mordovskayarepublic", "depth_from": "[0. 0.]", "depth_to": "[0.2 1. ]", "network": "RUSWET-AGRO"}, "geometry": {"type": "Point", "coordinates": [44.58, 54.35]}}, {"type": "Feature", "properties": {"station_name": "Moscowskaya", "depth_from": "[0. 0.]", "depth_to": "[0.2 1. ]", "network": "RUSWET-AGRO"}, "geometry": {"type": "Point", "coordinates": [37.58, 55.63]}}, {"type": "Feature", "properties": {"station_name": "Murmanskaya", "depth_from": "[0.]", "depth_to": "[0.2]", "network": "RUSWET-AGRO"}, "geometry": {"type": "Point", "coordinates": [34.59, 67.91]}}, {"type": "Feature", "properties": {"station_name": "N-Kazahst", "depth_from": "[0. 0.]", "depth_to": "[0.2 1. ]", "network": "RUSWET-AGRO"}, "geometry": {"type": "Point", "coordinates": [68.18, 54.55]}}, {"type": "Feature", "properties": {"station_name": "Navojskaya", "depth_from": "[0. 0.]", "depth_to": "[0.2 1. ]", "network": "RUSWET-AGRO"}, "geometry": {"type": "Point", "coordinates": [65.5, 40.6]}}, {"type": "Feature", "properties": {"station_name": "NizhniNovgorodskaya", "depth_from": "[0. 0.]", "depth_to": "[0.2 1. ]", "network": "RUSWET-AGRO"}, "geometry": {"type": "Point", "coordinates": [44.57, 56.15]}}, {"type": "Feature", "properties": {"station_name": "Novgorodskaya", "depth_from": "[0. 0.]", "depth_to": "[0.2 1. ]", "network": "RUSWET-AGRO"}, "geometry": {"type": "Point", "coordinates": [32.352, 58.253]}}, {"type": "Feature", "properties": {"station_name": "Novosibi", "depth_from": "[0. 0.]", "depth_to": "[0.2 1. ]", "network": "RUSWET-AGRO"}, "geometry": {"type": "Point", "coordinates": [80.12, 54.4]}}, {"type": "Feature", "properties": {"station_name": "Odesskaya", "depth_from": "[0. 0.]", "depth_to": "[0.2 1. ]", "network": "RUSWET-AGRO"}, "geometry": {"type": "Point", "coordinates": [29.87, 46.4]}}, {"type": "Feature", "properties": {"station_name": "Omsk", "depth_from": "[0. 0.]", "depth_to": "[0.2 1. ]", "network": "RUSWET-AGRO"}, "geometry": {"type": "Point", "coordinates": [73.4, 55.28]}}, {"type": "Feature", "properties": {"station_name": "Orenburgskaya", "depth_from": "[0. 0.]", "depth_to": "[0.2 1. ]", "network": "RUSWET-AGRO"}, "geometry": {"type": "Point", "coordinates": [55.08, 52.17]}}, {"type": "Feature", "properties": {"station_name": "Orlovskaya", "depth_from": "[0. 0.]", "depth_to": "[0.2 1. ]", "network": "RUSWET-AGRO"}, "geometry": {"type": "Point", "coordinates": [36.42, 52.85]}}, {"type": "Feature", "properties": {"station_name": "Oshskaya", "depth_from": "[0. 0.]", "depth_to": "[0.2 1. ]", "network": "RUSWET-AGRO"}, "geometry": {"type": "Point", "coordinates": [73.178, 40.321]}}, {"type": "Feature", "properties": {"station_name": "Pavlodar", "depth_from": "[0. 0.]", "depth_to": "[0.2 1. ]", "network": "RUSWET-AGRO"}, "geometry": {"type": "Point", "coordinates": [75.97, 52.98]}}, {"type": "Feature", "properties": {"station_name": "Penzenskaya", "depth_from": "[0. 0.]", "depth_to": "[0.2 1. ]", "network": "RUSWET-AGRO"}, "geometry": {"type": "Point", "coordinates": [44.48, 53.27]}}, {"type": "Feature", "properties": {"station_name": "Permskaya", "depth_from": "[0. 0.]", "depth_to": "[0.2 1. ]", "network": "RUSWET-AGRO"}, "geometry": {"type": "Point", "coordinates": [55.43, 57.8]}}, {"type": "Feature", "properties": {"station_name": "Pskovskaya", "depth_from": "[0. 0.]", "depth_to": "[0.2 1. ]", "network": "RUSWET-AGRO"}, "geometry": {"type": "Point", "coordinates": [29.057, 57.306]}}, {"type": "Feature", "properties": {"station_name": "RajonyRepublicanPodcinenia", "depth_from": "[0. 0.]", "depth_to": "[0.2 1. ]", "network": "RUSWET-AGRO"}, "geometry": {"type": "Point", "coordinates": [69.3, 38.7]}}, {"type": "Feature", "properties": {"station_name": "Rostovskaya", "depth_from": "[0. 0.]", "depth_to": "[0.2 1. ]", "network": "RUSWET-AGRO"}, "geometry": {"type": "Point", "coordinates": [41.25, 47.72]}}, {"type": "Feature", "properties": {"station_name": "Ryazanskaya", "depth_from": "[0. 0.]", "depth_to": "[0.2 1. ]", "network": "RUSWET-AGRO"}, "geometry": {"type": "Point", "coordinates": [40.27, 54.23]}}, {"type": "Feature", "properties": {"station_name": "Sakha(Yakutia)Republic", "depth_from": "[0. 0.]", "depth_to": "[0.2 1. ]", "network": "RUSWET-AGRO"}, "geometry": {"type": "Point", "coordinates": [125.732, 61.801]}}, {"type": "Feature", "properties": {"station_name": "Samarkandskaya", "depth_from": "[0. 0.]", "depth_to": "[0.2 1. ]", "network": "RUSWET-AGRO"}, "geometry": {"type": "Point", "coordinates": [66.471, 39.851]}}, {"type": "Feature", "properties": {"station_name": "Samarskaya(Kujbyshevskaya)", "depth_from": "[0. 0.]", "depth_to": "[0.2 1. ]", "network": "RUSWET-AGRO"}, "geometry": {"type": "Point", "coordinates": [50.6, 53.33]}}, {"type": "Feature", "properties": {"station_name": "Saratovskaya", "depth_from": "[0. 0.]", "depth_to": "[0.2 1. ]", "network": "RUSWET-AGRO"}, "geometry": {"type": "Point", "coordinates": [47.0, 51.63]}}, {"type": "Feature", "properties": {"station_name": "Semipalat", "depth_from": "[0. 0.]", "depth_to": "[0.2 1. ]", "network": "RUSWET-AGRO"}, "geometry": {"type": "Point", "coordinates": [80.65, 48.93]}}, {"type": "Feature", "properties": {"station_name": "Severo-OsetinskayaRepublic", "depth_from": "[0. 0.]", "depth_to": "[0.2 1. ]", "network": "RUSWET-AGRO"}, "geometry": {"type": "Point", "coordinates": [44.273, 43.118]}}, {"type": "Feature", "properties": {"station_name": "Smolenskaya", "depth_from": "[0. 0.]", "depth_to": "[0.2 1. ]", "network": "RUSWET-AGRO"}, "geometry": {"type": "Point", "coordinates": [33.03, 55.08]}}, {"type": "Feature", "properties": {"station_name": "Stavropolskaya", "depth_from": "[0. 0.]", "depth_to": "[0.2 1. ]", "network": "RUSWET-AGRO"}, "geometry": {"type": "Point", "coordinates": [43.18, 44.92]}}, {"type": "Feature", "properties": {"station_name": "Sverdlovsk(Ekaterin.)", "depth_from": "[0. 0.]", "depth_to": "[0.2 1. ]", "network": "RUSWET-AGRO"}, "geometry": {"type": "Point", "coordinates": [62.08, 57.32]}}, {"type": "Feature", "properties": {"station_name": "SyrdarinskayaO.", "depth_from": "[0. 0.]", "depth_to": "[0.2 1. ]", "network": "RUSWET-AGRO"}, "geometry": {"type": "Point", "coordinates": [68.081, 40.628]}}, {"type": "Feature", "properties": {"station_name": "Talasskaya", "depth_from": "[0. 0.]", "depth_to": "[0.2 1. ]", "network": "RUSWET-AGRO"}, "geometry": {"type": "Point", "coordinates": [72.549, 42.179]}}, {"type": "Feature", "properties": {"station_name": "Taldi-Ku", "depth_from": "[0. 0.]", "depth_to": "[0.2 1. ]", "network": "RUSWET-AGRO"}, "geometry": {"type": "Point", "coordinates": [79.02, 45.2]}}, {"type": "Feature", "properties": {"station_name": "Tambovskaya", "depth_from": "[0. 0.]", "depth_to": "[0.2 1. ]", "network": "RUSWET-AGRO"}, "geometry": {"type": "Point", "coordinates": [41.58, 52.53]}}, {"type": "Feature", "properties": {"station_name": "Tatarrepublic", "depth_from": "[0. 0.]", "depth_to": "[0.2 1. ]", "network": "RUSWET-AGRO"}, "geometry": {"type": "Point", "coordinates": [50.57, 55.27]}}, {"type": "Feature", "properties": {"station_name": "Tomsk", "depth_from": "[0. 0.]", "depth_to": "[0.2 1. ]", "network": "RUSWET-AGRO"}, "geometry": {"type": "Point", "coordinates": [84.38, 56.77]}}, {"type": "Feature", "properties": {"station_name": "Tselinogr", "depth_from": "[0. 0.]", "depth_to": "[0.2 1. ]", "network": "RUSWET-AGRO"}, "geometry": {"type": "Point", "coordinates": [70.17, 51.75]}}, {"type": "Feature", "properties": {"station_name": "Tulskaya", "depth_from": "[0. 0.]", "depth_to": "[0.2 1. ]", "network": "RUSWET-AGRO"}, "geometry": {"type": "Point", "coordinates": [37.57, 53.7]}}, {"type": "Feature", "properties": {"station_name": "Tumen", "depth_from": "[0. 0.]", "depth_to": "[0.2 1. ]", "network": "RUSWET-AGRO"}, "geometry": {"type": "Point", "coordinates": [68.18, 56.72]}}, {"type": "Feature", "properties": {"station_name": "Turgaj", "depth_from": "[0. 0.]", "depth_to": "[0.2 1. ]", "network": "RUSWET-AGRO"}, "geometry": {"type": "Point", "coordinates": [65.58, 50.48]}}, {"type": "Feature", "properties": {"station_name": "TuvaRepublic", "depth_from": "[0. 0.]", "depth_to": "[0.2 1. ]", "network": "RUSWET-AGRO"}, "geometry": {"type": "Point", "coordinates": [94.6, 51.48]}}, {"type": "Feature", "properties": {"station_name": "Tverskaya", "depth_from": "[0. 0.]", "depth_to": "[0.2 1. ]", "network": "RUSWET-AGRO"}, "geometry": {"type": "Point", "coordinates": [34.85, 57.05]}}, {"type": "Feature", "properties": {"station_name": "Tyumenskaya", "depth_from": "[0. 0.]", "depth_to": "[0.2 1. ]", "network": "RUSWET-AGRO"}, "geometry": {"type": "Point", "coordinates": [62.47, 69.72]}}, {"type": "Feature", "properties": {"station_name": "Udmurtrepublic", "depth_from": "[0. 0.]", "depth_to": "[0.2 1. ]", "network": "RUSWET-AGRO"}, "geometry": {"type": "Point", "coordinates": [53.0, 57.2]}}, {"type": "Feature", "properties": {"station_name": "Ulyanovskaya", "depth_from": "[0. 0.]", "depth_to": "[0.2 1. ]", "network": "RUSWET-AGRO"}, "geometry": {"type": "Point", "coordinates": [47.52, 53.75]}}, {"type": "Feature", "properties": {"station_name": "Uralsk", "depth_from": "[0. 0.]", "depth_to": "[0.2 1. ]", "network": "RUSWET-AGRO"}, "geometry": {"type": "Point", "coordinates": [49.97, 50.35]}}, {"type": "Feature", "properties": {"station_name": "Vitebskaya", "depth_from": "[0. 0.]", "depth_to": "[0.2 1. ]", "network": "RUSWET-AGRO"}, "geometry": {"type": "Point", "coordinates": [28.82, 55.12]}}, {"type": "Feature", "properties": {"station_name": "Vladimirskaya", "depth_from": "[0. 0.]", "depth_to": "[0.2 1. ]", "network": "RUSWET-AGRO"}, "geometry": {"type": "Point", "coordinates": [40.53, 56.13]}}, {"type": "Feature", "properties": {"station_name": "Volgogradskaya", "depth_from": "[0. 0.]", "depth_to": "[0.2 1. ]", "network": "RUSWET-AGRO"}, "geometry": {"type": "Point", "coordinates": [43.82, 49.62]}}, {"type": "Feature", "properties": {"station_name": "Vologodskaya", "depth_from": "[0. 0.]", "depth_to": "[0.2 1. ]", "network": "RUSWET-AGRO"}, "geometry": {"type": "Point", "coordinates": [40.876, 59.745]}}, {"type": "Feature", "properties": {"station_name": "Voronezhskaya", "depth_from": "[0. 0.]", "depth_to": "[0.2 1. ]", "network": "RUSWET-AGRO"}, "geometry": {"type": "Point", "coordinates": [40.23, 50.9]}}, {"type": "Feature", "properties": {"station_name": "Yaroslavskaya", "depth_from": "[0. 0.]", "depth_to": "[0.2 1. ]", "network": "RUSWET-AGRO"}, "geometry": {"type": "Point", "coordinates": [39.08, 57.78]}}]}