{"type": "FeatureCollection", "features": [{"type": "Feature", "properties": {"station_name": "BlueWrenPk", "depth_from": "[0. 0. 0.]", "depth_to": "[0.05 0.3  0.05]", "network": "SASMAS"}, "geometry": {"type": "Point", "coordinates": [150.4894, -32.3828]}}, {"type": "Feature", "properties": {"station_name": "Brunbrae", "depth_from": "[0. 0. 0.]", "depth_to": "[0.05 0.3  0.05]", "network": "SASMAS"}, "geometry": {"type": "Point", "coordinates": [150.1336, -31.9331]}}, {"type": "Feature", "properties": {"station_name": "Cullingral", "depth_from": "[0. 0. 0.]", "depth_to": "[0.05 0.3  0.05]", "network": "SASMAS"}, "geometry": {"type": "Point", "coordinates": [150.3336, -32.1578]}}, {"type": "Feature", "properties": {"station_name": "Cumbo", "depth_from": "[0. 0. 0.]", "depth_to": "[0.05 0.3  0.05]", "network": "SASMAS"}, "geometry": {"type": "Point", "coordinates": [149.8822, -32.4061]}}, {"type": "Feature", "properties": {"station_name": "Dales", "depth_from": "[0. 0. 0.]", "depth_to": "[0.05 0.3  0.05]", "network": "SASMAS"}, "geometry": {"type": "Point", "coordinates": [150.4317, -31.9469]}}, {"type": "Feature", "properties": {"station_name": "Illogan", "depth_from": "[0. 0. 0.]", "depth_to": "[0.05 0.3  0.05]", "network": "SASMAS"}, "geometry": {"type": "Point", "coordinates": [150.07, -32.1486]}}, {"type": "Feature", "properties": {"station_name": "Kilwirrin", "depth_from": "[0. 0. 0.]", "depth_to": "[0.05 0.3  0.05]", "network": "SASMAS"}, "geometry": {"type": "Point", "coordinates": [150.07, -32.0419]}}, {"type": "Feature", "properties": {"station_name": "MaramPk", "depth_from": "[0. 0. 0.]", "depth_to": "[0.05 0.3  0.05]", "network": "SASMAS"}, "geometry": {"type": "Point", "coordinates": [150.3114, -32.2417]}}, {"type": "Feature", "properties": {"station_name": "MerriwaPk", "depth_from": "[0. 0. 0.]", "depth_to": "[0.05 0.3  0.05]", "network": "SASMAS"}, "geometry": {"type": "Point", "coordinates": [150.3747, -32.1117]}}, {"type": "Feature", "properties": {"station_name": "Midlothian", "depth_from": "[0. 0. 0.]", "depth_to": "[0.05 0.3  0.05]", "network": "SASMAS"}, "geometry": {"type": "Point", "coordinates": [150.3511, -32.0222]}}, {"type": "Feature", "properties": {"station_name": "Nagoli", "depth_from": "[0. 0. 0.]", "depth_to": "[0.05 0.3  0.05]", "network": "SASMAS"}, "geometry": {"type": "Point", "coordinates": [150.0114, -32.0208]}}, {"type": "Feature", "properties": {"station_name": "PembrokeSth", "depth_from": "[0. 0. 0.]", "depth_to": "[0.05 0.3  0.05]", "network": "SASMAS"}, "geometry": {"type": "Point", "coordinates": [150.1461, -32.0394]}}, {"type": "Feature", "properties": {"station_name": "Roscommon", "depth_from": "[0. 0. 0.]", "depth_to": "[0.05 0.3  0.05]", "network": "SASMAS"}, "geometry": {"type": "Point", "coordinates": [150.07, -32.1606]}}, {"type": "Feature", "properties": {"station_name": "Widden", "depth_from": "[0. 0. 0.]", "depth_to": "[0.05 0.3  0.05]", "network": "SASMAS"}, "geometry": {"type": "Point", "coordinates": [150.3592, -32.5258]}}]}